City_ID,City,Country,Date,Latitude,Longitude,Cloudiness (%),Humidity (%),Max Temp (C),Wind Speed (mph)
0,puerto ayora,EC,2023-02-07 17:30:55,-0.7393,-90.3518,29,91,28.98,4.47
1,nikolskoye,RU,2023-02-07 17:33:41,59.7035,30.7861,99,88,-1.06,4.5
2,barrow,US,2023-02-07 17:33:41,71.2906,-156.7887,100,78,-18.99,0
3,punta arenas,CL,2023-02-07 17:30:40,-53.15,-70.9167,75,59,16.06,6.69
4,kaseda,JP,2023-02-07 17:33:42,31.4167,130.3167,96,77,11.11,5.29
5,bredasdorp,ZA,2023-02-07 17:33:43,-34.5322,20.0403,90,74,19.44,4.01
6,varnavino,RU,2023-02-07 17:33:43,57.4035,45.0916,98,98,-15.56,2.94
7,khatanga,RU,2023-02-07 17:33:43,71.9667,102.5,76,100,-44,0.93
8,kamenskoye,,,,,,,,
9,coquimbo,CL,2023-02-07 17:33:44,-29.9533,-71.3436,100,82,18.85,5.14
10,petropavlovsk-kamchatskiy,RU,2023-02-07 17:25:36,53.0452,158.6483,20,77,-20.67,2
11,upernavik,GL,2023-02-07 17:32:58,72.7868,-56.1549,76,98,-29.17,1.54
12,tuggurt,,,,,,,,
13,amboasary,MG,2023-02-07 17:31:09,-25.0333,46.3833,93,90,22.29,1.98
14,barentsburg,,,,,,,,
15,talnakh,RU,2023-02-07 17:24:51,69.4865,88.3972,99,98,-23.02,2.91
16,ada,US,2023-02-07 17:33:40,43.4166,-116.1262,0,49,9.05,2.06
17,new norfolk,AU,2023-02-07 17:33:45,-42.7826,147.0587,8,58,15.4,0.44
18,banda aceh,ID,2023-02-07 17:33:46,5.5577,95.3222,99,84,25.26,3.51
19,atuona,PF,2023-02-07 17:33:46,-9.8,-139.0333,12,78,25.79,6.67
20,inhambane,MZ,2023-02-07 17:25:50,-23.865,35.3833,2,88,25.52,3.56
21,pevek,RU,2023-02-07 17:33:46,69.7008,170.3133,100,95,-30.21,1.36
22,ponta do sol,PT,2023-02-07 17:33:47,32.6667,-17.1,15,70,15.56,2.3
23,lompoc,US,2023-02-07 17:33:01,34.6391,-120.4579,20,57,20.99,5.14
24,alofi,NU,2023-02-07 17:33:47,-19.0595,-169.9187,100,94,24.94,3.09
25,busselton,AU,2023-02-07 17:29:44,-33.65,115.3333,27,84,17.05,4.3
26,longyearbyen,SJ,2023-02-07 17:33:48,78.2186,15.6401,100,93,-6.09,10.29
27,saskylakh,RU,2023-02-07 17:33:48,71.9167,114.0833,99,99,-34.05,0.74
28,saint anthony,US,2023-02-07 17:24:19,45.0205,-93.218,0,63,2.23,5.66
29,mataura,NZ,2023-02-07 17:31:43,-46.1927,168.8643,75,70,9.71,4.82
30,rikitea,PF,2023-02-07 17:29:47,-23.1203,-134.9692,84,74,26.01,5.42
31,cape town,ZA,2023-02-07 17:29:13,-33.9258,18.4232,30,75,21.88,5.36
32,avarua,CK,2023-02-07 17:32:07,-21.2078,-159.775,20,79,29.03,5.66
33,bengkulu,ID,2023-02-07 17:31:41,-3.8004,102.2655,93,82,23.56,2.45
34,belushya guba,,,,,,,,
35,lolua,,,,,,,,
36,ribeira grande,PT,2023-02-07 17:33:49,38.5167,-28.7,63,66,13.21,5.36
37,mar del plata,AR,2023-02-07 17:31:15,-38.0023,-57.5575,40,87,26.57,7.15
38,dingle,PH,2023-02-07 17:33:50,10.9995,122.6711,100,92,23.45,3.53
39,yellowknife,CA,2023-02-07 17:32:50,62.456,-114.3525,75,78,-18.71,3.6
40,aklavik,CA,2023-02-07 17:33:50,68.2191,-135.0107,100,76,-29,1.54
41,hobyo,SO,2023-02-07 17:33:51,5.3505,48.5268,21,77,24.31,5.87
42,samusu,,,,,,,,
43,nizhneyansk,,,,,,,,
44,zanesville,US,2023-02-07 17:33:21,39.9404,-82.0132,100,85,11.33,4.12
45,richards bay,ZA,2023-02-07 17:33:51,-28.783,32.0377,52,96,22.9,1.88
46,la ronge,CA,2023-02-07 17:33:52,55.1001,-105.2842,0,35,3.14,6.69
47,rio grande,BR,2023-02-07 17:33:35,-32.035,-52.0986,6,69,29.06,7.06
48,bluff,NZ,2023-02-07 17:29:45,-46.6,168.3333,79,67,11,11.49
49,rafaela,AR,2023-02-07 17:33:52,-31.2503,-61.4867,0,13,32.78,3.35
50,fortuna,US,2023-02-07 17:33:53,40.5982,-124.1573,0,64,15.52,1.79
51,east london,ZA,2023-02-07 17:33:53,-33.0153,27.9116,100,86,21.81,4.86
52,jamestown,US,2023-02-07 17:33:53,42.097,-79.2353,100,71,8.9,4.92
53,narrabri,AU,2023-02-07 17:33:54,-30.3167,149.7833,1,55,26.96,1.79
54,plettenberg bay,ZA,2023-02-07 17:24:50,-34.0527,23.3716,100,87,19.55,0.89
55,san felipe,VE,2023-02-07 17:33:54,10.3399,-68.7425,99,93,22.03,2.54
56,albany,US,2023-02-07 17:29:40,42.6001,-73.9662,100,47,3.71,4.98
57,saint-georges,GD,2023-02-07 17:29:11,12.0564,-61.7485,100,82,24.84,5.92
58,kiunga,PG,2023-02-07 17:33:55,-6.1219,141.2906,99,96,24.13,1.25
59,kapaa,US,2023-02-07 17:33:55,22.0752,-159.319,40,84,27.18,5.14
60,bonavista,CA,2023-02-07 17:33:56,48.6499,-53.1147,100,67,-5.19,9.34
61,hobart,AU,2023-02-07 17:33:56,-42.8794,147.3294,75,61,15.59,4.63
62,vaini,TO,2023-02-07 17:29:52,-21.2,-175.2,75,89,28.09,4.63
63,conceicao do araguaia,BR,2023-02-07 17:25:12,-8.2578,-49.2647,98,89,24.66,1.32
64,port elizabeth,ZA,2023-02-07 17:33:58,-33.918,25.5701,0,91,20.73,3.09
65,ostrovnoy,RU,2023-02-07 17:33:58,68.0531,39.5131,65,76,0.15,10.45
66,faanui,PF,2023-02-07 17:33:59,-16.4833,-151.75,30,75,27.04,5.58
67,nerchinskiy zavod,RU,2023-02-07 17:33:59,51.3088,119.61,97,100,-34.72,0.69
68,ancud,CL,2023-02-07 17:34:00,-41.8697,-73.8203,6,83,16.97,3.22
69,tawkar,,,,,,,,
70,grand centre,,,,,,,,
71,bambous virieux,MU,2023-02-07 17:34:01,-20.3428,57.7575,75,78,26.14,4.63
72,sao filipe,CV,2023-02-07 17:34:01,14.8961,-24.4956,3,64,20.48,5.67
73,jambi,ID,2023-02-07 17:34:02,-1.6,103.6167,100,98,23.11,1.01
74,ushuaia,AR,2023-02-07 17:30:17,-54.8,-68.3,20,47,12.81,2.06
75,mahebourg,MU,2023-02-07 17:34:03,-20.4081,57.7,75,78,26.16,4.63
76,uribia,CO,2023-02-07 17:34:04,11.7139,-72.266,10,61,27.1,9.57
77,saint george,US,2023-02-07 17:30:38,37.1041,-113.5841,0,34,11.81,0.89
78,altos,BR,2023-02-07 17:34:11,-5.0381,-42.46,98,96,24.17,1.94
79,half moon bay,US,2023-02-07 17:32:59,37.4636,-122.4286,0,63,17.73,5.66
80,illoqqortoormiut,,,,,,,,
81,urdzhar,,,,,,,,
82,warrnambool,AU,2023-02-07 17:34:14,-38.3833,142.4833,81,71,16.22,5.59
83,taltal,CL,2023-02-07 17:25:40,-25.4,-70.4833,62,74,22.74,3.06
84,airai,TL,2023-02-07 17:33:53,-8.9266,125.4092,93,90,17.82,0.72
85,hermanus,ZA,2023-02-07 17:29:55,-34.4187,19.2345,62,80,20.45,5.69
86,san patricio,US,2023-02-07 17:34:17,28.017,-97.5169,99,75,25.97,8.56
87,nemuro,JP,2023-02-07 17:34:19,43.3236,145.575,62,74,-4.29,3.12
88,katsuura,JP,2023-02-07 17:34:22,35.1333,140.3,98,79,10.34,8.18
89,norman wells,CA,2023-02-07 17:34:23,65.282,-126.8329,75,71,-21.98,0
90,salamiyah,SY,2023-02-07 17:34:27,35.0113,37.0532,59,93,2.73,8.47
91,dikson,RU,2023-02-07 17:34:29,73.5069,80.5464,100,92,-24.33,9.07
92,tumannyy,,,,,,,,
93,ambilobe,MG,2023-02-07 17:34:38,-13.2,49.05,99,96,22.67,0.8
94,edd,ER,2023-02-07 17:34:38,13.9297,41.6925,6,73,24.78,2.06
95,arraial do cabo,BR,2023-02-07 17:34:39,-22.9661,-42.0278,75,100,22.92,2.57
96,castro,BR,2023-02-07 17:32:28,-24.7911,-50.0119,11,92,18.11,2.51
97,camocim,BR,2023-02-07 17:34:40,-2.9022,-40.8411,99,86,25.27,4.74
98,vila velha,BR,2023-02-07 17:34:40,-20.3297,-40.2925,40,88,26.97,6.17
99,leningradskiy,RU,2023-02-07 17:29:45,69.3833,178.4167,100,96,-31.87,2.5
100,corn island,NI,2023-02-07 17:34:41,12.1694,-83.0418,8,80,26.47,8.99
101,castelo do piaui,BR,2023-02-07 17:34:41,-5.3222,-41.5525,98,98,21.85,1.89
102,grand-santi,GF,2023-02-07 17:34:43,4.25,-54.3833,19,99,22.44,1.34
103,mount gambier,AU,2023-02-07 17:33:47,-37.8333,140.7667,4,62,17.07,4.25
104,tingrela,,,,,,,,
105,vostok,RU,2023-02-07 17:34:44,46.4856,135.8833,100,98,-17.72,1.48
106,taolanaro,,,,,,,,
107,ilulissat,GL,2023-02-07 17:34:45,69.2167,-51.1,100,77,-22.99,4.12
108,lubao,PH,2023-02-07 17:25:41,14.9167,120.55,98,90,25.04,2.06
109,nanortalik,GL,2023-02-07 17:34:46,60.1432,-45.2371,35,68,-15.04,9.83
110,wahran,,,,,,,,
111,caravelas,BR,2023-02-07 17:34:46,-17.7125,-39.2481,1,82,25.58,3.83
112,dagana,MR,2023-02-07 17:34:47,16.5165,-15.5068,53,17,22.12,4.76
113,mahajanga,MG,2023-02-07 17:34:47,-15.7167,46.3167,20,88,25.01,2.57
114,west fargo,US,2023-02-07 17:31:17,46.875,-96.9004,0,79,1.12,5.14
115,klaksvik,FO,2023-02-07 17:34:48,62.2266,-6.589,100,85,8.51,24.43
116,novyy urengoy,RU,2023-02-07 17:34:48,66.0833,76.6333,100,100,-25.18,3.31
117,shelburne,CA,2023-02-07 17:31:34,44.0787,-80.2041,94,97,3.42,7.97
118,ndele,CF,2023-02-07 17:34:49,8.4109,20.6473,37,14,24.69,3.27
119,thompson,CA,2023-02-07 17:31:12,55.7435,-97.8558,100,85,-16.91,2.06
120,oranjemund,NA,2023-02-07 17:34:49,-28.55,16.4333,79,93,17.45,6.44
121,viedma,AR,2023-02-07 17:34:50,-40.8135,-62.9967,15,63,22.32,5.54
122,hilo,US,2023-02-07 17:33:51,19.7297,-155.09,100,96,22.85,2.24
123,opuwo,NA,2023-02-07 17:34:51,-18.0607,13.84,98,53,19.41,2.94
124,muisne,EC,2023-02-07 17:34:51,0.6,-80.0333,8,82,26.41,3.54
125,carnarvon,AU,2023-02-07 17:34:52,-24.8667,113.6333,0,66,25.04,7.79
126,zastron,ZA,2023-02-07 17:34:52,-30.3023,27.084,99,79,16.46,2.29
127,ixtapa,MX,2023-02-07 17:30:59,20.7,-105.2,0,73,23.57,5.66
128,marcona,,,,,,,,
129,attawapiskat,,,,,,,,
130,saleaula,,,,,,,,
131,bosaso,SO,2023-02-07 17:34:53,11.2842,49.1816,54,82,23.29,1.1
132,karratha,AU,2023-02-07 17:25:45,-20.7377,116.8463,35,62,29.53,1.08
133,port alfred,ZA,2023-02-07 17:34:54,-33.5906,26.891,100,92,20.66,0.89
134,vinh long,VN,2023-02-07 17:30:07,10.25,105.9667,85,97,22.99,2.08
135,chuy,UY,2023-02-07 17:34:55,-33.6971,-53.4616,15,72,23.19,5.19
136,butaritari,KI,2023-02-07 17:32:45,3.0707,172.7902,100,80,27.28,9.91
137,kabalo,CD,2023-02-07 17:34:55,-6.05,26.9167,100,98,19.71,0.94
138,kahului,US,2023-02-07 17:34:56,20.8947,-156.47,40,75,27.76,11.32
139,cherskiy,RU,2023-02-07 17:34:56,68.75,161.3,100,98,-35.73,2.46
140,pacific grove,US,2023-02-07 17:34:57,36.6177,-121.9166,0,71,16.82,2.68
141,vardo,NO,2023-02-07 17:34:57,70.3705,31.1107,100,86,-0.01,14.4
142,veydelevka,RU,2023-02-07 17:34:57,50.1521,38.4492,7,89,-10.33,5.32
143,williams lake,CA,2023-02-07 17:31:10,52.1415,-122.1445,75,56,6.76,8.23
144,havre-saint-pierre,CA,2023-02-07 17:25:06,50.2334,-63.5986,34,85,-12.77,3.12
145,gigmoto,PH,2023-02-07 17:34:58,13.7796,124.39,100,84,25.78,5.07
146,sao felix do xingu,BR,2023-02-07 17:34:58,-6.6447,-51.995,83,92,23.57,0.6
147,azimur,,,,,,,,
148,mandera,KE,2023-02-07 17:34:59,3.9366,41.867,3,31,27.97,2.04
149,mildura,AU,2023-02-07 17:34:59,-34.2,142.15,0,58,21.15,6.02
150,gravdal,NO,2023-02-07 17:35:00,68.1214,13.5031,40,81,4.94,6.69
151,tecoanapa,MX,2023-02-07 17:33:58,16.5167,-98.75,2,61,27.97,4.89
152,bilma,NE,2023-02-07 17:35:00,18.6853,12.9164,85,20,20.56,3.38
153,sistranda,NO,2023-02-07 17:35:01,63.7256,8.834,78,84,2.98,7.86
154,necochea,AR,2023-02-07 17:35:02,-38.5473,-58.7368,26,72,23.68,9.18
155,grand river south east,,,,,,,,
156,lahan,NP,2023-02-07 17:35:04,26.7296,86.4951,1,57,14.35,1.87
157,sao joaquim,BR,2023-02-07 17:35:06,-28.2939,-49.9317,51,86,15.82,2.55
158,san andres,CO,2023-02-07 17:35:09,12.5847,-81.7006,20,74,28.01,7.72
159,hithadhoo,MV,2023-02-07 17:35:11,-0.6,73.0833,68,70,27.23,3.82
160,tokur,RU,2023-02-07 17:35:12,53.1333,132.9,100,100,-40.09,1.17
161,viesca,MX,2023-02-07 17:35:18,25.35,-102.8,55,11,28.37,4.02
162,saint-philippe,RE,2023-02-07 17:35:20,-21.3585,55.7679,82,83,25.77,6.31
163,adwa,ET,2023-02-07 17:35:23,14.1646,38.8955,1,67,15.71,1.56
164,luohe,CN,2023-02-07 17:35:27,33.5717,114.0353,99,95,4.64,2.96
165,broken hill,AU,2023-02-07 17:34:59,-31.95,141.4333,0,22,25.54,6.09
166,sentyabrskiy,,,,,,,,
167,kupang,ID,2023-02-07 17:35:37,-10.1667,123.5833,20,100,25.32,1.03
168,sassari,IT,2023-02-07 17:32:32,40.7272,8.5603,2,83,4.88,3.54
169,yasnyy,RU,2023-02-07 17:35:38,51.0333,59.8742,97,100,-20.85,3.29
170,emerald,AU,2023-02-07 17:35:39,-23.5333,148.1667,35,65,24.63,4.15
171,fukue,JP,2023-02-07 17:35:39,32.6881,128.8419,75,64,11.86,6.58
172,velyka bahachka,UA,2023-02-07 17:35:40,49.7912,33.7226,13,86,-8.03,4.97
173,hofn,IS,2023-02-07 17:33:44,64.2539,-15.2082,100,60,0.54,11.7
174,koutsouras,GR,2023-02-07 17:35:41,35.0339,25.9469,38,73,6.73,13.03
175,udachnyy,RU,2023-02-07 17:35:41,66.4167,112.4,99,73,-37.53,1.24
176,cockburn town,TC,2023-02-07 17:30:43,21.4612,-71.1419,0,76,25.11,10.28
177,lebu,CL,2023-02-07 17:35:42,-37.6167,-73.65,0,83,16.1,7.76
178,esperance,AU,2023-02-07 17:35:42,-33.8667,121.9,100,66,20.64,4.84
179,kavieng,PG,2023-02-07 17:35:42,-2.5744,150.7967,100,78,27.48,4.49
180,tuktoyaktuk,CA,2023-02-07 17:32:48,69.4541,-133.0374,100,75,-33,0
181,kodiak,US,2023-02-07 17:31:36,57.79,-152.4072,0,55,-1.27,7.72
182,bang saphan,TH,2023-02-07 17:35:43,11.2126,99.5117,22,87,22.35,1.25
183,iqaluit,CA,2023-02-07 17:32:23,63.7506,-68.5145,75,67,-31.84,3.09
184,beitbridge,ZW,2023-02-07 17:35:43,-22.2167,30,0,66,24.02,3.84
185,senta,RS,2023-02-07 17:35:44,45.9275,20.0772,6,57,-2.98,2.94
186,tungkang,,,,,,,,
187,leshukonskoye,RU,2023-02-07 17:35:45,64.8989,45.7622,100,95,-1.78,4.95
188,luoyang,CN,2023-02-07 17:35:45,34.6836,112.4536,100,66,4.49,3.97
189,shitanjing,CN,2023-02-07 17:35:45,39.2342,106.3439,100,46,-3.13,2.98
190,bolungarvik,,,,,,,,
191,lafiagi,NG,2023-02-07 17:35:46,8.8667,5.4167,100,21,29.77,1.71
192,kaitangata,NZ,2023-02-07 17:35:46,-46.2817,169.8464,78,58,13.89,6.48
193,san juan,AR,2023-02-07 17:35:24,-31.5375,-68.5364,0,15,36.95,4.69
194,mamit,IN,2023-02-07 17:35:47,23.9333,92.4833,0,77,9.45,1.4
195,corlatel,RO,2023-02-07 17:35:47,44.3986,22.9331,93,74,-2.58,1.91
196,tiksi,RU,2023-02-07 17:33:41,71.6872,128.8694,100,100,-32.92,1.92
197,okhotsk,RU,2023-02-07 17:35:48,59.3833,143.3,97,86,-25.98,4.47
198,tuy hoa,VN,2023-02-07 17:35:48,13.0833,109.3,40,93,21.99,1.62
199,teya,RU,2023-02-07 17:35:49,60.3778,92.6267,100,97,-11.9,1.17
200,san ramon,US,2023-02-07 17:35:45,37.7799,-121.978,0,57,16.34,2.06
201,geraldton,AU,2023-02-07 17:31:49,-28.7667,114.6,100,88,19.23,4.12
202,ukiah,US,2023-02-07 17:35:50,39.1502,-123.2078,0,56,17.31,3.13
203,ponta delgada,PT,2023-02-07 17:35:50,37.7333,-25.6667,40,82,13.4,7.2
204,torbay,CA,2023-02-07 17:31:06,47.6666,-52.7314,75,83,-4.12,9.83
205,husyatyn,UA,2023-02-07 17:35:51,49.0726,26.2141,25,93,-7.23,2.96
206,vanimo,PG,2023-02-07 17:35:51,-2.6741,141.3028,100,96,24.48,2.19
207,roma,US,2023-02-07 17:25:27,43.2128,-75.4557,100,60,6.01,4.12
208,bethel,US,2023-02-07 17:33:34,41.3712,-73.414,0,66,2.98,3.09
209,tezu,IN,2023-02-07 17:35:52,27.9167,96.1667,98,74,13.66,1.35
210,yeppoon,AU,2023-02-07 17:35:52,-23.1333,150.7333,75,70,25.88,8.38
211,tasiilaq,GL,2023-02-07 17:35:53,65.6145,-37.6368,2,35,-16.91,15.94
212,praia,CV,2023-02-07 17:35:53,14.9215,-23.5087,20,64,20.3,9.77
213,port augusta,AU,2023-02-07 17:35:53,-32.5,137.7667,0,21,29.4,3.06
214,tilichiki,RU,2023-02-07 17:35:54,60.4667,166.1,39,92,-31.44,4.28
215,oussouye,SN,2023-02-07 17:35:54,12.485,-16.5469,24,61,23.1,4.7
216,kirakira,SB,2023-02-07 17:35:55,-10.4544,161.9205,98,86,27.63,4.95
217,hasaki,JP,2023-02-07 17:35:55,35.7333,140.8333,100,75,8.22,10.09
218,port hardy,CA,2023-02-07 17:30:57,50.6996,-127.4199,75,93,6.1,2.57
219,gamba,GA,2023-02-07 17:35:56,-2.65,10,81,81,25.25,0.93
220,itupiranga,BR,2023-02-07 17:35:56,-5.1347,-49.3267,98,95,25.18,1.72
221,cidreira,BR,2023-02-07 17:35:56,-30.1811,-50.2056,17,75,24.56,5.43
222,colares,PT,2023-02-07 17:35:57,38.7992,-9.4469,6,70,11.05,5.36
223,bowmore,US,2023-02-07 17:35:57,34.9421,-79.3031,0,30,18.91,2.57
224,road town,VG,2023-02-07 17:35:57,18.4167,-64.6167,40,78,26.05,3.6
225,barkhan,PK,2023-02-07 17:35:58,29.8977,69.5256,61,21,10.34,0.76
226,vila franca do campo,PT,2023-02-07 17:35:58,37.7167,-25.4333,83,82,13.23,5.31
227,bira,RU,2023-02-07 17:35:59,49,132.4667,12,94,-28.83,1.78
228,clyde river,CA,2023-02-07 17:35:59,70.4692,-68.5914,0,68,-34.87,1.54
229,victoria,HK,2023-02-07 17:33:22,22.2855,114.1577,91,91,18.03,4.02
230,imeni babushkina,RU,2023-02-07 17:36:00,59.7573,43.1285,100,94,-9.43,4.3
231,warqla,,,,,,,,
232,ust-kut,RU,2023-02-07 17:32:23,56.7938,105.7672,100,99,-17.47,1.29
233,tiarei,PF,2023-02-07 17:36:01,-17.5333,-149.3333,0,65,30.01,2.87
234,flinders,AU,2023-02-07 17:36:02,-34.5833,150.8552,100,93,20.21,1.73
235,dianopolis,,,,,,,,
236,banos,EC,2023-02-07 17:36:04,-1.4,-78.4167,72,82,19.51,1.93
237,chokurdakh,RU,2023-02-07 17:36:08,70.6333,147.9167,99,100,-39.02,1.74
238,mataruska banja,RS,2023-02-07 17:36:13,43.6901,20.6109,75,80,-3.03,2.57
239,ouesso,CG,2023-02-07 17:36:18,1.6136,16.0517,98,48,24.03,1.4
240,ahipara,NZ,2023-02-07 17:36:19,-35.1667,173.1667,97,59,21.35,3.3
241,the valley,AI,2023-02-07 17:36:22,18.217,-63.0578,20,83,25.61,5.66
242,chara,RU,2023-02-07 17:36:23,56.9064,118.2631,97,78,-24.87,1.19
243,srednekolymsk,RU,2023-02-07 17:31:53,67.45,153.6833,100,99,-35.32,2.45
244,cayenne,GF,2023-02-07 17:36:27,4.9333,-52.3333,75,88,25.02,5.14
245,izhma,RU,2023-02-07 17:36:34,65.0083,53.9113,100,94,-7.84,5.16
246,te anau,NZ,2023-02-07 17:36:39,-45.4167,167.7167,58,58,12.32,4.27
247,ucluelet,CA,2023-02-07 17:36:40,48.9329,-125.5528,55,81,6.17,8.46
248,palabuhanratu,,,,,,,,
249,shingu,JP,2023-02-07 17:36:41,33.7333,135.9833,1,83,7.46,3.34
250,nantucket,US,2023-02-07 17:36:42,41.2835,-70.0995,40,78,2.03,2.06
251,lavrentiya,RU,2023-02-07 17:36:43,65.5833,-171,100,86,-24.48,1.35
252,ajdabiya,LY,2023-02-07 17:36:43,30.7554,20.2263,90,56,11.52,2.6
253,hihifo,,,,,,,,
254,radhanpur,IN,2023-02-07 17:36:44,23.8333,71.6,3,23,18.31,2.55
255,calama,CL,2023-02-07 17:34:08,-22.4667,-68.9333,75,35,23.27,9.26
256,neuquen,AR,2023-02-07 17:36:44,-38.9516,-68.0591,0,15,34.94,2.06
257,mercedes,AR,2023-02-07 17:35:41,-34.6515,-59.4307,2,20,33.77,4.12
258,sorvag,,,,,,,,
259,ouargaye,BF,2023-02-07 17:36:45,11.5033,0.0572,73,17,28.19,3.65
260,jumla,NP,2023-02-07 17:36:45,29.2747,82.1838,4,70,0.9,1.56
261,tsihombe,,,,,,,,
262,quilmana,PE,2023-02-07 17:36:46,-12.95,-76.3833,20,76,25.02,2.55
263,provideniya,RU,2023-02-07 17:36:46,64.3833,-173.3,100,71,-18.94,5
264,san cristobal,VE,2023-02-07 17:36:47,7.7669,-72.225,27,62,24.1,0.86
265,namibe,AO,2023-02-07 17:35:52,-15.1961,12.1522,75,75,21.39,4.13
266,vao,NC,2023-02-07 17:33:39,-22.6667,167.4833,39,71,26.43,5.6
267,lorengau,PG,2023-02-07 17:36:47,-2.0226,147.2712,100,91,25.67,5.03
268,port said,EG,2023-02-07 17:36:48,31.2565,32.2841,40,71,10.99,6.17
269,somain,FR,2023-02-07 17:36:48,50.3596,3.2811,84,66,-0.87,1.77
270,bandarbeyla,SO,2023-02-07 17:36:49,9.4942,50.8122,56,77,24.41,6.08
271,westport,US,2023-02-07 17:36:49,41.1415,-73.3579,75,71,4.32,3.6
272,mukhen,RU,2023-02-07 17:36:49,48.1,136.1,31,90,-20.7,3.03
273,bathsheba,BB,2023-02-07 17:36:50,13.2167,-59.5167,40,73,26.34,7.2
274,comodoro rivadavia,AR,2023-02-07 17:35:14,-45.8667,-67.5,0,23,24.92,4.12
275,liberal,US,2023-02-07 17:36:50,37.0431,-100.921,0,26,12.08,6.69
276,georgetown,MY,2023-02-07 17:33:35,5.4112,100.3354,20,92,25.96,2.06
277,rodnykove,UA,2023-02-07 17:36:51,45.043,33.9541,100,94,-2.91,7.63
278,lakes entrance,AU,2023-02-07 17:36:51,-37.8811,147.981,8,73,17.31,1.59
279,nhulunbuy,AU,2023-02-07 17:36:52,-12.2333,136.7667,75,89,27.34,2.06
280,jaque,PA,2023-02-07 17:36:52,7.5175,-78.1703,100,85,27.24,2.94
281,lyubar,UA,2023-02-07 17:36:52,49.9204,27.7592,35,98,-10.96,2.38
282,anadyr,RU,2023-02-07 17:36:53,64.75,177.4833,0,75,-31.72,5
283,port lincoln,AU,2023-02-07 17:36:53,-34.7333,135.8667,3,69,20.82,5.37
284,lexington,US,2023-02-07 17:35:21,37.9887,-84.4777,100,55,17,0.89
285,hvide sande,DK,2023-02-07 17:31:54,56.0045,8.1294,99,88,4.49,6.05
286,henties bay,NA,2023-02-07 17:36:54,-22.116,14.2845,51,85,18.92,2.28
287,bowen,AU,2023-02-07 17:35:50,-20.0167,148.2333,93,80,26.73,7.84
288,moses lake,US,2023-02-07 17:36:54,47.1301,-119.2781,100,66,8.2,6.17
289,quatre cocos,MU,2023-02-07 17:36:54,-20.2078,57.7625,35,82,26.06,6.58
290,requena,ES,2023-02-07 17:36:55,39.4883,-1.1004,99,86,0.84,1.72
291,katete,UG,2023-02-07 17:36:55,-0.7818,29.7544,89,54,18.48,1.94
292,teguldet,RU,2023-02-07 17:36:56,57.3064,88.1667,100,95,-11.32,3.01
293,buala,SB,2023-02-07 17:33:12,-8.145,159.5921,97,87,27.31,4.33
294,moose factory,CA,2023-02-07 17:36:56,51.2585,-80.6094,100,79,-9,6.69
295,tuatapere,NZ,2023-02-07 17:36:56,-46.1333,167.6833,66,63,12.54,6.63
296,hammerfest,NO,2023-02-07 17:36:57,70.6634,23.6821,40,100,0.25,7.2
297,viligili,,,,,,,,
298,codrington,AU,2023-02-07 17:36:57,-38.2667,141.9667,59,66,17.27,5.61
299,schwarzenberg,DE,2023-02-07 17:36:58,50.55,12.7833,4,90,-7.74,1.67
300,qaanaaq,GL,2023-02-07 17:36:58,77.484,-69.3632,89,65,-31.22,2.35
301,hami,CN,2023-02-07 17:36:58,42.8,93.45,100,55,0.34,1.26
302,narsaq,GL,2023-02-07 17:34:00,60.9167,-46.05,0,68,-18.88,3.05
303,umzimvubu,,,,,,,,
304,qaqortoq,GL,2023-02-07 17:36:59,60.7167,-46.0333,0,67,-25.15,3.28
305,mys shmidta,,,,,,,,
306,semporna,MY,2023-02-07 17:37:00,4.4818,118.6112,100,89,24.78,2.17
307,tautira,PF,2023-02-07 17:36:46,-17.7333,-149.15,0,65,26.53,2.29
308,zhigansk,RU,2023-02-07 17:37:00,66.7697,123.3711,96,99,-46.33,2.3
309,ust-koksa,RU,2023-02-07 17:37:01,50.2696,85.6108,93,96,-12.02,0.57
310,bystryy istok,RU,2023-02-07 17:37:01,52.371,84.3873,100,96,-9.17,2.15
311,rio gallegos,AR,2023-02-07 17:36:51,-51.6226,-69.2181,40,48,18.03,9.77
312,sungaipenuh,ID,2023-02-07 17:37:03,-2.0833,101.3833,97,60,17.18,0.76
313,mackay,AU,2023-02-07 17:37:04,-21.15,149.2,98,81,27.6,8.91
314,avera,US,2023-02-07 17:37:06,33.194,-82.5271,94,55,19.73,1.79
315,sinnamary,GF,2023-02-07 17:37:08,5.3833,-52.95,32,90,24.52,5.28
316,sibolga,ID,2023-02-07 17:37:08,1.7427,98.7792,100,73,23.06,2.17
317,moussoro,TD,2023-02-07 17:37:09,13.6408,16.4901,100,18,21.6,6.42
318,hamilton,US,2023-02-07 17:29:52,39.1834,-84.5333,100,80,13.01,4.12
319,goderich,CA,2023-02-07 17:33:38,43.7501,-81.7165,100,93,2.18,5.66
320,guerrero negro,MX,2023-02-07 17:35:40,27.9769,-114.0611,1,20,22,0.77
321,manavalakurichi,IN,2023-02-07 17:37:14,8.1333,77.3,48,72,23.77,2.03
322,astoria,US,2023-02-07 17:37:14,46.1879,-123.8313,100,86,10.94,7.2
323,carbondale,US,2023-02-07 17:36:38,37.7273,-89.2168,100,93,10,2.57
324,mount isa,AU,2023-02-07 17:33:37,-20.7333,139.5,75,69,27.87,4.12
325,seattle,US,2023-02-07 17:35:41,47.6062,-122.3321,40,86,11.08,7.2
326,keffi,NG,2023-02-07 17:37:19,8.8486,7.8736,41,15,26.65,1.84
327,yakeshi,CN,2023-02-07 17:37:20,49.2833,120.7333,100,100,-28.3,0.42
328,vrangel,RU,2023-02-07 17:37:21,42.7297,133.0839,46,61,-6.95,2.51
329,gazli,UZ,2023-02-07 17:37:22,40.1333,63.45,99,53,7.42,5.69
330,rorvik,NO,2023-02-07 17:37:22,64.8621,11.2373,20,81,4.99,5.14
331,sembakung,ID,2023-02-07 17:37:23,3.8167,117.25,100,99,21.72,0.86
332,virginia beach,US,2023-02-07 17:37:24,36.8529,-75.978,0,63,14.04,2.06
333,alyangula,AU,2023-02-07 17:37:26,-13.8483,136.4192,100,68,29.11,1.69
334,zvecka,RS,2023-02-07 17:37:26,44.6389,20.1647,5,81,-2.27,0.45
335,itarema,BR,2023-02-07 17:37:27,-2.9248,-39.9167,100,78,26.28,5.16
336,mezhdurechensk,RU,2023-02-07 17:37:28,53.6942,88.0603,100,97,-6.71,1.24
337,patti,IN,2023-02-07 17:37:29,31.2808,74.8572,41,52,10.04,1.53
338,arlit,NE,2023-02-07 17:37:30,18.7369,7.3853,100,13,23.95,2.7
339,san quintin,MX,2023-02-07 17:37:33,30.4833,-115.95,0,41,17.52,4.72
340,meulaboh,ID,2023-02-07 17:37:34,4.1363,96.1285,100,83,23.82,1.27
341,nuuk,GL,2023-02-07 17:35:20,64.1835,-51.7216,75,78,-12.66,1.54
342,atar,MR,2023-02-07 17:37:35,20.5169,-13.0499,94,23,16.98,5.44
343,salalah,OM,2023-02-07 17:37:36,17.0151,54.0924,0,43,21.05,1.54
344,mokhsogollokh,RU,2023-02-07 17:37:36,61.4681,128.9203,100,100,-41.94,0.97
345,chitral,PK,2023-02-07 17:37:37,35.8462,71.7858,1,50,-3.76,3.92
346,ballina,AU,2023-02-07 17:37:37,-28.8667,153.5667,100,95,22.23,2.86
347,haines junction,CA,2023-02-07 17:37:38,60.7522,-137.5108,76,86,-2.03,0.51
348,acapulco,MX,2023-02-07 17:33:25,16.8634,-99.8901,20,65,28.9,6.69
349,usinsk,RU,2023-02-07 17:37:38,65.9939,57.5281,100,94,-11.34,12
350,asau,RO,2023-02-07 17:37:39,46.4333,26.4,100,97,-4.49,1.68
351,olafsvik,IS,2023-02-07 17:37:39,64.8945,-23.7142,100,66,-2.87,11.82
352,padang,ID,2023-02-07 17:37:39,-0.9492,100.3543,99,68,24.24,1.57
353,amderma,,,,,,,,
354,lagoa,PT,2023-02-07 17:37:40,39.05,-27.9833,72,60,13.16,6.71
355,pakwach,,,,,,,,
356,hervey bay,AU,2023-02-07 17:37:41,-25.2986,152.8535,69,60,26.12,9.05
357,sokoni,TZ,2023-02-07 17:37:41,-6.4333,39.55,98,78,27.25,5.69
358,podor,MR,2023-02-07 17:37:42,16.6527,-14.9587,0,43,22.97,1.03
359,batagay,RU,2023-02-07 17:37:42,67.6333,134.6333,45,99,-49.44,1.22
360,cabo san lucas,MX,2023-02-07 17:37:42,22.8909,-109.9124,85,54,26.45,1.79
361,orlik,RU,2023-02-07 17:37:43,52.5178,99.825,34,96,-27.73,1.21
362,souillac,MU,2023-02-07 17:37:43,-20.5167,57.5167,75,78,26.21,4.63
363,akyab,MM,2023-02-07 17:37:44,20.15,92.9,0,68,17.68,3.03
364,bacuit,,,,,,,,
365,tanout,NE,2023-02-07 17:37:44,14.9709,8.8879,51,16,19.3,5.26
366,fevralsk,,,,,,,,
367,summerville,US,2023-02-07 17:37:45,33.0185,-80.1757,0,57,18.97,4.12
368,tura,IN,2023-02-07 17:32:53,25.5198,90.2201,19,50,14.89,1.57
369,koungou,YT,2023-02-07 17:37:46,-12.7336,45.2042,0,83,26.84,3.6
370,malinovoye ozero,RU,2023-02-07 17:37:47,51.6753,79.7825,92,100,-20.59,1.88
371,binzhou,CN,2023-02-07 17:37:47,37.3667,118.0167,73,63,-1.45,2.92
372,santiago de chuco,PE,2023-02-07 17:37:47,-8.15,-78.1833,69,78,13.31,1.28
373,margate,GB,2023-02-07 17:33:43,51.3813,1.3862,9,64,1.28,1.77
374,lata,PT,2023-02-07 17:37:48,40.1629,-8.3327,4,78,5.6,1.76
375,haverfordwest,GB,2023-02-07 17:37:48,51.8017,-4.9691,78,87,2.77,2.14
376,khani,GE,2023-02-07 17:37:49,41.9563,42.9566,100,98,-2.24,1.99
377,itaituba,BR,2023-02-07 17:37:49,-4.2761,-55.9836,99,98,23.52,0.25
378,north bend,US,2023-02-07 17:36:40,43.4065,-124.2243,100,93,12.73,7.72
379,dongsheng,CN,2023-02-07 17:37:50,39.8161,109.9776,50,59,-6.87,3.7
380,shache,CN,2023-02-07 17:36:36,38.4167,77.2406,0,66,-1.89,3.09
381,samarai,PG,2023-02-07 17:37:50,-10.6167,150.6667,100,79,27.39,4.59
382,belaya gora,RU,2023-02-07 17:37:50,68.5333,146.4167,94,100,-43.97,1.36
383,constitucion,CL,2023-02-07 17:33:50,-35.3333,-72.4167,10,62,18.95,4.38
384,russell,US,2023-02-07 17:36:40,32.3502,-85.1999,0,40,21.6,2.06
385,pangnirtung,CA,2023-02-07 17:37:51,66.1451,-65.7125,0,75,-35,1.54
386,ambunti,PG,2023-02-07 17:37:51,-4.2365,142.8448,100,99,23.36,0.81
387,saint-augustin,CA,2023-02-07 17:37:52,51.226,-58.6502,1,86,-19.67,1.83
388,tateyama,JP,2023-02-07 17:37:52,34.9833,139.8667,99,81,8.94,6.16
389,batagay-alyta,RU,2023-02-07 17:37:53,67.8006,130.4114,100,100,-35.56,0.39
390,livingston,GB,2023-02-07 17:37:53,55.9029,-3.5226,40,90,7.37,1.54
391,dakar,SN,2023-02-07 17:35:00,14.6937,-17.4441,0,82,20.49,5.14
392,norden,DE,2023-02-07 17:37:53,53.6,7.2,7,74,-1.7,2.93
393,kangaatsiaq,GL,2023-02-07 17:37:54,68.3065,-53.4641,100,85,-27.74,1.76
394,jinxi,CN,2023-02-07 17:37:54,30.4323,116.2922,100,84,9.54,4.09
395,mattru,SL,2023-02-07 17:37:55,7.6244,-11.8332,100,77,23.68,0.81
396,ozgon,,,,,,,,
397,high level,CA,2023-02-07 17:37:55,58.5169,-117.136,20,51,1.06,4.63
398,mehamn,NO,2023-02-07 17:37:55,71.0357,27.8492,100,69,1.97,13.89
399,kieta,PG,2023-02-07 17:35:39,-6.2167,155.6333,89,79,27.72,3.83
400,pesnica pri mariboru,SI,2023-02-07 17:37:56,46.6069,15.6767,1,78,-5.82,2.06
401,sola,VU,2023-02-07 17:37:56,-13.8833,167.55,100,76,27.94,6.53
402,honiara,SB,2023-02-07 17:37:56,-9.4333,159.95,100,71,28.92,2.3
403,gopalpur,IN,2023-02-07 17:37:57,19.2667,84.9167,1,83,20.37,2.51
404,fomboni,KM,2023-02-07 17:37:57,-12.28,43.7425,100,78,27.66,5.68
405,krasnoyarsk,RU,2023-02-07 17:34:40,56.0097,92.7917,100,94,-15.78,1.75
406,tabou,CI,2023-02-07 17:37:58,4.423,-7.3528,100,86,26.37,2.69
407,slave lake,CA,2023-02-07 17:37:58,55.2834,-114.769,0,41,2.99,5.14
408,saravan,AM,2023-02-07 17:37:58,39.7196,45.6483,100,95,-3.77,0.55
409,wamba,NG,2023-02-07 17:37:59,8.9333,8.6,67,16,24.63,1.94
410,sur,OM,2023-02-07 17:37:59,22.5667,59.5289,32,57,22.63,4.24
411,kamenka,RU,2023-02-07 17:37:59,51.3223,42.7678,9,95,-13.97,3.57
412,mozarlandia,BR,2023-02-07 17:38:00,-14.7447,-50.5706,66,79,25.31,2.5
413,komsomolskiy,UZ,2023-02-07 17:33:40,40.4272,71.7189,10,80,1.4,3.09
414,kholm,RU,2023-02-07 17:38:00,59.2667,32.85,100,92,-3.89,5
415,nalut,LY,2023-02-07 17:38:00,30.3333,10.85,100,52,15.03,6.93
416,ciamis,ID,2023-02-07 17:38:01,-7.3257,108.3534,100,95,22.82,0.85
417,los llanos de aridane,ES,2023-02-07 17:38:01,28.6585,-17.9182,100,85,14.86,5.14
418,roald,NO,2023-02-07 17:38:02,62.5833,6.1333,40,57,8.08,11.32
419,baturaja,ID,2023-02-07 17:38:04,-4.1333,104.1667,100,98,22.78,0.73
420,vaitupu,,,,,,,,
421,woodland,US,2023-02-07 17:37:19,38.6785,-121.7733,100,61,16.51,1.54
422,panguipulli,CL,2023-02-07 17:38:08,-39.6333,-72.3333,0,36,24.92,2.55
423,iberia,US,2023-02-07 17:38:10,29.9502,-91.7507,40,57,26.04,5.66
424,pithoragarh,IN,2023-02-07 17:38:12,29.5833,80.2167,2,55,3.74,1.5
425,labuhan,ID,2023-02-07 17:38:13,-6.8844,112.2051,100,90,24.37,3.7
426,ozernovskiy,RU,2023-02-07 17:38:14,51.5,156.5167,100,91,-9.64,2
427,mizan teferi,ET,2023-02-07 17:38:15,6.9833,35.5833,43,50,19.27,1.11
428,abu dhabi,AE,2023-02-07 17:28:39,24.4667,54.3667,0,31,26.01,2.57
429,umea,SE,2023-02-07 17:38:16,63.8284,20.2597,96,100,-1.72,1.54
430,salinas,US,2023-02-07 17:35:09,36.6777,-121.6555,0,61,17.05,2.57
431,tyazhinskiy,RU,2023-02-07 17:38:19,56.116,88.524,100,93,-11.64,3.57
432,pulandian,CN,2023-02-07 17:38:19,39.3953,121.9669,0,46,-3.1,2.53
433,tibati,CM,2023-02-07 17:38:20,6.4667,12.6333,29,19,21.24,1.97
434,mogadishu,SO,2023-02-07 17:38:21,2.0371,45.3438,38,85,24.7,8.25
435,ipixuna,BR,2023-02-07 17:38:22,-1.7625,-48.8043,96,97,23.6,2
436,morro bay,US,2023-02-07 17:34:58,35.3658,-120.8499,34,62,19.03,1.34
437,mindif,CM,2023-02-07 17:38:23,10.3976,14.4363,51,17,25.22,5.46
438,ouegoa,NC,2023-02-07 17:38:24,-20.35,164.4333,88,78,27.78,1.4
439,northam,GB,2023-02-07 17:38:28,51.0333,-4.2167,1,89,3.67,3.18
440,namatanai,PG,2023-02-07 17:38:29,-3.6667,152.4333,100,77,27.51,2.19
441,puri,IN,2023-02-07 17:38:33,19.8,85.85,1,78,23.23,4.34
442,san antonio,US,2023-02-07 17:37:25,29.4241,-98.4936,100,83,22.29,2.06
443,lumeje,AO,2023-02-07 17:38:34,-11.55,20.7833,100,94,17.71,1.79
444,sabang,ID,2023-02-07 17:38:35,5.8933,95.3214,90,74,27.22,5.64
445,adolfo lopez mateos,MX,2023-02-07 17:38:35,28.4667,-107.3,0,9,14.4,12.21
446,kenner,US,2023-02-07 17:34:53,29.9941,-90.2417,75,66,25.56,5.14
447,lethem,GY,2023-02-07 17:38:36,3.3803,-59.7968,78,61,28.3,4.7
448,yar-sale,RU,2023-02-07 17:38:36,66.8333,70.8333,99,91,-19.12,6.85
449,olga,RU,2023-02-07 17:38:37,43.7444,135.2892,96,75,-10.4,2.23
450,yazd,IR,2023-02-07 17:37:07,31.8972,54.3675,40,31,15.06,8.23
451,nelson bay,AU,2023-02-07 17:38:37,-32.7167,152.15,33,69,26.72,4.47
452,sorland,NO,2023-02-07 17:36:49,67.667,12.6934,100,77,5.92,18.9
453,victor harbor,AU,2023-02-07 17:38:38,-35.5667,138.6167,0,83,17.78,4.23
454,plastun,RU,2023-02-07 17:38:38,44.7561,136.2939,51,81,-11.9,2.57
455,broome,US,2023-02-07 17:35:47,42.2506,-75.833,100,67,5.81,5.81
456,puerto escondido,MX,2023-02-07 17:38:39,15.85,-97.0667,40,58,29.46,3.09
457,rudnogorsk,RU,2023-02-07 17:38:39,57.2639,103.7519,100,97,-17.52,0.97
458,teguise,ES,2023-02-07 17:38:40,29.0605,-13.564,20,67,14.12,1.03
459,evensk,RU,2023-02-07 17:38:40,61.95,159.2333,74,75,-29.66,3.95
460,la rochelle,FR,2023-02-07 17:38:41,46.1667,-1.15,0,81,4.4,5.14
461,bilibino,RU,2023-02-07 17:38:41,68.0546,166.4372,100,100,-39.69,0.1
462,san ignacio,BZ,2023-02-07 17:38:41,17.1561,-89.0714,40,70,29.08,0
463,oriximina,BR,2023-02-07 17:38:42,-1.7656,-55.8661,99,92,24.57,1.07
464,phan thiet,VN,2023-02-07 17:38:42,10.9333,108.1,65,81,22.55,2.45
465,oxford,GB,2023-02-07 17:35:33,51.7522,-1.256,7,94,1.8,1.03
466,cairns,AU,2023-02-07 17:34:53,-16.9167,145.7667,94,82,30.06,2.57
467,boa vista,BR,2023-02-07 17:38:43,2.8197,-60.6733,20,54,29.99,3.6
468,kapit,MY,2023-02-07 17:38:43,2.0167,112.9333,96,99,22.09,0.57
469,whitehorse,CA,2023-02-07 17:38:43,60.7161,-135.0538,20,59,-2.57,6.69
470,qandahar,,,,,,,,
471,belmonte,BR,2023-02-07 17:38:44,-15.8631,-38.8828,6,76,26.27,4.72
472,kaharlyk,UA,2023-02-07 17:38:45,49.8623,30.8282,21,94,-8.09,3.56
473,ulladulla,AU,2023-02-07 17:37:25,-35.35,150.4667,100,90,18.66,2.27
474,bazarnyye mataki,RU,2023-02-07 17:38:45,54.8833,49.9333,73,100,-23.46,1.77
475,santa cruz,BO,2023-02-07 17:35:38,-17.8,-63.1667,75,69,29.7,4.63
476,vorobyevka,RU,2023-02-07 17:38:46,50.6451,40.9245,7,94,-12.88,4.68
477,uruzgan,AF,2023-02-07 17:38:46,32.8333,66,100,74,3.11,2.62
478,dongying,CN,2023-02-07 17:38:46,37.4564,118.4856,45,69,-0.85,2.93
479,baruun-urt,MN,2023-02-07 17:38:47,46.6806,113.2792,4,90,-20.77,2.64
480,kalabo,ZM,2023-02-07 17:38:47,-14.97,22.6814,100,93,19.11,3.06
481,bismarck,US,2023-02-07 17:38:48,46.8083,-100.7837,0,71,4.91,4.63
482,tekirdag,TR,2023-02-07 17:38:48,40.978,27.5085,9,75,-2.36,7.16
483,gilazi,,,,,,,,
484,veraval,IN,2023-02-07 17:38:49,20.9,70.3667,1,67,20.89,3.07
485,sumbawa,,,,,,,,
486,planadas,CO,2023-02-07 17:38:49,3.197,-75.6451,60,76,30.24,0.42
487,neiafu,TO,2023-02-07 17:38:49,-18.65,-173.9833,75,78,28.38,3.6
488,sao miguel do araguaia,BR,2023-02-07 17:38:50,-13.275,-50.1628,25,75,25.26,0.33
489,leon,MX,2023-02-07 17:30:42,21.1167,-101.6667,7,23,26.03,0.79
490,lianran,CN,2023-02-07 17:38:50,24.9227,102.485,0,56,6.3,1.34
491,kangasala,FI,2023-02-07 17:38:51,61.4638,24.076,100,100,1.19,2.21
492,belyy yar,RU,2023-02-07 17:38:51,53.6039,91.3903,100,93,-15.06,1
493,beloha,MG,2023-02-07 17:38:51,-25.1667,45.05,100,85,22.96,2.32
494,shkotovo-26,,,,,,,,
495,bumba,CD,2023-02-07 17:38:52,2.1833,22.4667,96,35,25.32,0.62
496,unity,CA,2023-02-07 17:38:53,52.4501,-109.1682,83,94,-0.97,2.69
497,verkhoturye,RU,2023-02-07 17:38:53,58.8627,60.8054,90,100,-23.73,1.7
498,caraquet,CA,2023-02-07 17:38:53,47.7941,-64.9386,56,94,-7.7,1.57
499,mayumba,GA,2023-02-07 17:38:54,-3.432,10.6554,41,87,25.32,1
500,seoul,KR,2023-02-07 17:35:38,37.5683,126.9778,0,93,-1.31,0.51
501,port-cartier,CA,2023-02-07 17:38:54,50.0334,-66.8654,100,84,-7.18,4.59
502,tessalit,ML,2023-02-07 17:38:55,20.1986,1.0114,97,15,23.34,1.19
503,gualeguay,AR,2023-02-07 17:38:55,-33.1416,-59.3097,0,19,31.06,3.64
504,chincha alta,PE,2023-02-07 17:38:55,-13.4099,-76.1323,17,76,26.33,2.09
505,isangel,VU,2023-02-07 17:38:56,-19.55,169.2667,75,89,28.06,1.03
506,kruisfontein,ZA,2023-02-07 17:38:56,-34.0033,24.7314,100,79,19.21,1.9
507,venado tuerto,AR,2023-02-07 17:38:56,-33.7456,-61.9688,0,22,32.09,1.96
508,shangrao,CN,2023-02-07 17:38:57,28.4532,117.9686,100,94,10.56,2.84
509,kushima,JP,2023-02-07 17:38:57,31.4583,131.2333,100,91,9.35,2.67
510,mrirt,,,,,,,,
511,alta floresta,BR,2023-02-07 17:38:58,-9.8756,-56.0861,100,92,22.87,1.21
512,aswan,EG,2023-02-07 17:38:58,24.0934,32.907,0,40,11.61,2.57
513,ayan,RU,2023-02-07 17:38:59,56.45,138.1667,24,81,-31.46,3.8
514,iwaki,JP,2023-02-07 17:38:59,37.05,140.8833,100,85,5.01,0.45
515,dwarka,IN,2023-02-07 17:39:00,22.2394,68.9678,27,64,21.03,3.88
516,abbeville,FR,2023-02-07 17:39:00,50.1,1.8333,80,68,-2.02,1.68
517,illapel,CL,2023-02-07 17:36:12,-31.6308,-71.1653,0,50,26.2,2.76
518,maua,BR,2023-02-07 17:39:01,-23.6678,-46.4614,94,96,22.42,2.4
519,rocha,UY,2023-02-07 17:37:26,-34.4833,-54.3333,29,68,22.81,4.63
520,onda,ES,2023-02-07 17:39:04,39.9667,-0.25,69,67,9.94,3.13
521,saint-pierre,RE,2023-02-07 17:39:05,-21.3393,55.4781,20,78,25.82,2.57
522,savelugu,GH,2023-02-07 17:39:06,9.6244,-0.8253,100,33,32.32,0.8
523,havelock,US,2023-02-07 17:39:08,34.8791,-76.9013,0,60,16,3.6
524,sandila,IN,2023-02-07 17:39:09,27.0833,80.5167,0,65,13.16,3.7
525,aktau,KZ,2023-02-07 17:39:10,43.65,51.2,100,72,3.32,5.45
526,vazante,BR,2023-02-07 17:39:12,-17.9869,-46.9078,66,83,22.59,2.41
527,dapaong,TG,2023-02-07 17:39:13,10.8639,0.205,85,16,30.32,2.72
528,faya,SA,2023-02-07 17:39:13,18.3851,42.4509,36,79,12.06,1.48
529,hefei,CN,2023-02-07 17:39:14,31.8639,117.2808,100,81,7.01,3
530,qurayyat,SA,2023-02-07 17:39:15,31.3318,37.3428,75,66,8.1,4.12
531,wladyslawowo,PL,2023-02-07 17:39:16,54.7909,18.4009,80,87,0.82,4.47
532,santa maria,BR,2023-02-07 17:39:17,-29.6842,-53.8069,20,33,30.61,1.54
533,malakal,SS,2023-02-07 17:39:18,9.5334,31.6605,0,14,25.81,4.52
534,lubango,AO,2023-02-07 17:39:19,-14.9172,13.4925,95,83,15.65,1.2
535,andenes,NO,2023-02-07 17:39:20,69.3143,16.1194,40,60,3.99,9.77
536,ngunguru,NZ,2023-02-07 17:39:22,-35.6167,174.5,63,57,21.5,3.91
537,luba,GQ,2023-02-07 17:39:23,3.4568,8.5547,58,78,26.94,2.99
538,maiduguri,NG,2023-02-07 17:39:25,11.8464,13.1603,89,23,21.75,4.08
539,tabuk,PH,2023-02-07 17:39:25,17.4189,121.4443,35,94,21.7,0.3
540,yulara,AU,2023-02-07 17:39:27,-25.2406,130.9889,0,27,29.22,3.23
541,touros,BR,2023-02-07 17:39:30,-5.1989,-35.4608,70,67,26.6,7.15
542,inverell,AU,2023-02-07 17:39:31,-29.7833,151.1167,57,62,25.06,1.34
543,montecristo,CO,2023-02-07 17:39:33,8.2971,-74.4733,65,61,29.79,0.33
544,deputatskiy,RU,2023-02-07 17:35:19,69.3,139.9,58,99,-43.67,1.9
545,abiy adi,,,,,,,,
546,chapada dos guimaraes,BR,2023-02-07 17:39:36,-15.4606,-55.7497,60,89,24.81,0.49
547,amahai,ID,2023-02-07 17:39:37,-3.3333,128.9167,100,80,26.1,1.45
548,yokadouma,CM,2023-02-07 17:39:37,3.5167,15.05,36,27,21.05,0.48
549,boa viagem,BR,2023-02-07 17:39:38,-5.1275,-39.7322,96,54,25.63,0.77
550,esmeraldas,BR,2023-02-07 17:39:38,-19.7625,-44.3139,70,86,23.58,0.3
551,cardston,CA,2023-02-07 17:39:38,49.2,-113.3019,99,48,5.16,1.54
552,valga,EE,2023-02-07 17:39:39,57.7778,26.0473,100,90,-2.22,0.89
553,chimbote,PE,2023-02-07 17:39:41,-9.0853,-78.5783,11,76,23.19,3.82
554,potsdam,DE,2023-02-07 17:39:41,52.3989,13.0657,52,83,0.06,1.45
555,jinka,ET,2023-02-07 17:39:41,5.65,36.65,3,34,19.7,0.67
556,natal,BR,2023-02-07 17:38:48,-5.795,-35.2094,20,65,26.36,4.63
557,rtishchevo,RU,2023-02-07 17:39:42,52.2604,43.7874,19,97,-15.95,3.4
558,antofagasta,CL,2023-02-07 17:33:45,-23.65,-70.4,88,81,22.6,3.25
559,tiznit,MA,2023-02-07 17:39:42,29.5833,-9.5,6,89,8.49,0.87
560,nexo,DK,2023-02-07 17:39:44,55.0607,15.1306,89,73,3.05,5.93
561,egvekinot,RU,2023-02-07 17:39:47,66.3167,-179.1667,98,87,-29.86,3.87
562,korla,CN,2023-02-07 17:39:47,41.7597,86.1469,73,85,-1.45,0.75
563,chicama,PE,2023-02-07 17:39:47,-7.8447,-79.1469,4,64,22.3,3.96
564,puerto ayacucho,VE,2023-02-07 17:39:48,5.6639,-67.6236,94,58,28.76,1.27
565,prainha,BR,2023-02-07 17:37:46,-1.8,-53.48,85,95,23.86,1.24
566,porosozero,RU,2023-02-07 17:39:48,62.7191,32.727,100,94,-2.45,4.41
567,valdivia,CL,2023-02-07 17:39:49,-39.8142,-73.2459,0,53,27.05,0.85
568,weligama,LK,2023-02-07 17:39:49,5.9667,80.4167,53,91,23.55,1.68
569,lahat,ID,2023-02-07 17:39:50,-3.8,103.5333,95,91,21.99,1.03
570,maghama,,,,,,,,
571,eyl,SO,2023-02-07 17:39:51,7.9803,49.8164,43,74,24.13,5.99
572,boguchany,RU,2023-02-07 17:39:52,58.3814,97.4531,100,97,-13.15,1.09
573,katherine,AU,2023-02-07 17:39:52,-14.4667,132.2667,85,83,27.18,1.54
574,jalu,LY,2023-02-07 17:39:55,29.0331,21.5482,100,54,10.94,3.52
575,la paz,BO,2023-02-07 17:35:43,-16.5,-68.15,75,81,10.99,4.63
576,chenzhou,CN,2023-02-07 17:39:56,25.8,113.0333,99,98,8.93,1.54
577,matara,LK,2023-02-07 17:39:56,5.9485,80.5353,62,91,23.43,2.02
578,udomlya,RU,2023-02-07 17:39:56,57.8794,34.9925,99,89,-4.63,4.2
579,oliveira,BR,2023-02-07 17:37:41,-20.6964,-44.8272,89,89,20.29,1.01
580,camana,PE,2023-02-07 17:37:36,-16.6228,-72.7111,62,82,24.36,3.4
581,matamoros,MX,2023-02-07 17:39:57,25.5333,-103.25,75,16,27.28,2.06
582,homer,US,2023-02-07 17:35:22,59.6425,-151.5483,100,81,-1.22,8.75
583,chumikan,RU,2023-02-07 17:39:58,54.7183,135.315,35,89,-31.79,4.53
584,kasungu,MW,2023-02-07 17:39:58,-13.0333,33.4833,78,97,17.22,0.79
585,shimoda,JP,2023-02-07 17:39:59,34.6667,138.95,89,76,8.95,2.69
586,chapais,CA,2023-02-07 17:39:59,49.7834,-74.8492,100,95,-7.12,5.37
587,beaverlodge,CA,2023-02-07 17:40:00,55.2166,-119.4361,91,89,-0.36,1.1
588,cumberland,US,2023-02-07 17:40:00,35.0502,-78.8664,0,31,18.28,4.63
589,sable-sur-sarthe,FR,2023-02-07 17:40:00,47.8376,-0.3329,8,83,1.63,3.29
590,luanda,AO,2023-02-07 17:38:33,-8.8368,13.2343,75,83,26,3.6
